"fire_scar","site","old.site","date","year","latitude_at_0m","longitude_at_0m","latitude_at_30m","longitude_at_30m","elevation","slope","aspect","transect_orientation","dNBR","severity","ground_severity","moisture_class","pre_fire_vegetation","site_notes","site_photo_start","site_photo_end"
"Aggie Creek","AgCr1",111,"7/17/2021",2021,65.23943,-148.13654,NA,NA,344,9,23,NA,0.726504921913147,NA,NA,"mesic-subxeric","Black spruce; unburned birch and spruce nearby","Most trees down;  severe burn; a little grassy; lots of birch and spruce regeneration ",NA,NA
"Aggie Creek","AgCr1",111,"7/21/2025",2025,65.239433,-148.136556,65.239433,-148.136556,358,0,211,121,0.726504921913147,NA,3,"mesic","Bs","Mixed. Spruce and birch regen, some big birch. Unburned birch nearby (100m)","aead2fcd-1c64-4aa8-9076-8a8b6eea0ea6","f32fa451-9741-4adb-b2d2-e256d4ba2788"
"Aggie Creek","AgCr2",93,"7/17/2021",2021,65.23635,-148.1286,NA,NA,358,11,38,NA,0.542445242404938,NA,NA,"mesic","Black spruce","Low combustion of trees; rocky; most organic hit rock before mineral; generally small org layers; ",NA,NA
"Aggie Creek","AgCr2",93,"7/21/2025",2025,65.236344,-148.128961,65.236169,-148.128417,369,0,199,109,0.542445242404938,NA,1,"mesic-subhygric","0","Site is rocky with only spruce regeneration. Shallow organic layer on top of rocks transition out the surface organic burned soil. Mostly polytrichum moss.","5c4d50bc-88a2-4148-bdc7-c5e5b4f8e9f7","c08db556-c7ab-4d1e-8e50-57201755dba4"
"Aggie Creek","AgCr3",94,"7/17/2021",2021,65.23642,-148.1326,NA,NA,369,10.5,334,NA,0.585850358009338,NA,NA,"mesic-subhygric","Black spruce - a few live ones ","Humid layer is thick. Patches of sphagnum. Small back spruce. Rocky soils. Some spruce regeneration and birch. Low severity. ",NA,NA
"Aggie Creek","AgCr3",94,"7/21/2025",2025,65.236381,-148.13255,65.236381,-148.13255,344,0,170,80,0.585850358009338,3,2,"mesic","Black spruce low density and productivity ","Patches of unburned sphagnum. Highly variable, rocky site. Patches and f high density spruce on chard sphagnum. Landscape undulating.","c74c8bdf-f18f-4b05-bcc0-54feff338d88","36b9a017-d2ee-4ea2-bb28-75715a55cc39"
"Aggie Creek","AgCr4",89,"7/18/2021",2021,65.2315,-148.13765,NA,NA,376,2,259,NA,0.628085911273956,NA,NA,"subhygric","Black spruce and tussocks","Soils collected intertussock; low severity",NA,NA
"Aggie Creek","AgCr4",89,"7/22/2025",2025,65.23154,-148.13757,65.231244,-148.137483,340,2,261,171,0.628085911273956,1,1,"subhygric","Black spruce","Old site is Aggie 89 end cord:65.23125 148.13747
Low spruce density. Spruce regen. Unburned patched with Sphagnum. Standing water is present. Bethany and some alder is present. Tussocks are present. Previous site was 89","ad483a7a-f182-453b-8993-710df6873ab6","bf0dae68-80ca-4c0e-bc07-112e51f0a5f1"
"Aggie Creek","AgCr5",110,"7/18/2021",2021,65.23412,-148.13985,NA,NA,367,2.5,206,NA,0.650740504264832,NA,NA,"mesic-subhygric","Black spruce","Starts at tenge of tussock patch. High severity. Deep burning. Spruce and birch regeneration.low drainage. ",NA,NA
"Aggie Creek","AgCr5",110,"7/22/2025",2025,65.234131,-148.139844,65.234281,-148.140417,382,2,206,296,0.650740504264832,3,2,"mesic","Black spruce, low density."," Loads of spruce regeneration. One or two birch regen at low density. No permafrost, no rock. End POC 65.23424 148.14020","155cdfc8-5fa6-427b-88c2-6e588370cc73","122482c1-24b9-4a39-b6af-bcfe6cfe4ccc"
"Aggie Creek","AgCr6",109,"7/18/2021",2021,65.23398,-148.13544,NA,NA,352,3,223,NA,0.579750597476959,NA,NA,"mesic","Black spruce","High severity. Humid later. Spruce and birch regen. Most trees fallen. Deep burning. ",NA,NA
"Aggie Creek","AgCr6",109,"7/22/2025",2025,65.23406,-148.13551,65.234264,-148.135739,420,2,252,342,0.579750597476959,2,3,"mesic","Black spruce","Lots of spruce and birch regen. High severity. Most trees fallen. Slope is minimal. Was previously 109. End coordinates: 65.23426 148.13573. Datum: WGS84","891f9900-d485-44bd-92b2-869965961396","6b12241c-5cd4-42d3-a68f-9c286913c04b"
"Chitanana","Chit1",29,"7/8/2023",2023,64.830883,-151.342338,NA,NA,101,6,322,NA,0.527454078197479,NA,NA,"mesic-subhygric","Black spruce. Larch uncommon. Possible white spruce component","Transect bearing 46. Transect runs through the tapering edge of black spruce Woodland. Open Tussock Meadow down slope. Green aspens upslope on minor ridgetop. ",NA,NA
"Chitanana","Chit1",29,"8/3/2025",2025,64.83076,-151.34212,64.83114,-151.34233,111,0,0,360,0.37580543756485,2,2,"mesic-subhygric","Black spruce low density low productivity ","Site is low land with medium to low severity. Having a hard time really telling. Group was leaning medium burn severity. Permafrost was present around 30 to 50. Orginic was more shallow at 15/18 cm. Lots of tussock regen with some betula and salix regen. Some spruce and birch regen.","c6def796-870e-47a1-949c-57eb000b887d","ef17f6cb-4304-463e-9661-36482b06a169"
"Chitanana","Chit3",32,"7/9/2023",2023,64.83542,-151.445774,NA,NA,77,1,316,NA,0.0144354701042175,NA,NA,"mesic-subhygric","Black spruce and larch. ","Trans bearing 195. Site located at a low point on the landscape. Two bogs are near the site and have standing water visible. Burn pattern was patchy and incomplete. Unburned aspen and white spruce visible outside of site. ",NA,NA
"Chitanana","Chit3",32,"8/3/2025",2025,64.83514,-151.44589,64.83548,-151.44589,77,0,0,360,0.0814158320426941,1,1,"mesic-subhygric","Black spruce sphagnum area with low productivity and density.","Site is in flat lowland area. Found past site post and went 30m south instead of north so stay in fire scar. No mineral. Only hitting frozen ground. Sphagnum was think about 30 cm. Live spruce tree surround site. So,‘em spruce and Larch regen was present.","67c0e4e9-7c7d-498b-9035-edf8282b09b5","e7d3b1b4-cca2-4cf0-9dc9-a62b49ea61a3"
"Chitanana","Chit4",33,"7/9/2023",2023,64.834231,-151.442154,NA,NA,77,0,0,NA,0.26547372341156,NA,NA,"mesic-subhygric","Black spruce occasional larch. ","Trans bearing 0. Patchy burn pattern at site. Located 30m away from river to SE. no notable topography at site level. Last plot of a long day. ",NA,NA
"Chitanana","Chit4",33,"8/3/2025",2025,64.83427,-151.44212,64.8345,-151.44215,82,0,0,360,0.26547372341156,1,1,"mesic","Black spruce with very low density and productivity with deciduous surrounding ","Site is in low land with both spruce and some deciduous present. Site is surrounded by deciduous trees on east and more spruce to the west. Lots of tussocks. Permafrost was present at about 40 cm. Organic was think into mineral. Some spruce regen but mostly birch. Alder and betula shrub regen as well","18b4b263-859b-4be6-9a5a-a42649146e4e","6f5b22c9-3540-4c30-af87-33f439b7115e"
"Dry Creek","DrCr1",NA,"8/5/2024",2024,64.9232,-150.57332,NA,NA,115,0,0,0,0.418499827384949,3,2,"subhygric","Low density black spruce. Tussocks. ","Transect located between open tussock area (100 m away) and unburned birch stand (50 m away). Tall prefire spruce, almost all still standing. Wet soils, deep organic soils remaining. Lots of tussock and birch shrub regen, ledum, grass. Fair number of prefire snags. Lots of spruce and birch seedlings, all quite small. Approximately 1.5 times more spruce seedlings than birch. Many birch seedlings too small to distinguish betula nana and neoalaskana. ","9830f1c7-c3ee-43a6-85f6-8182be62c5ac","7ae55cbb-debd-4e9c-a04f-3a72c6090e0f"
"Dry Creek","DrCr2",NA,"8/5/2024",2024,64.92661,-150.57555,NA,NA,101,0,0,0,0.533578991889954,1,1,"subhygric","Low density black spruce, birch shrubs","Major grass and bena regen. About 50m from open tussock area. Soils are wet and there are deep organics remaining. AR roots very close to surface. Not particularly close to any birch trees. Weird little hill 15m past end of transect. ","3126ba8a-8467-4abc-af35-f1d7479a506a","91256f5e-dfcf-410c-87d6-7b10f9ed9967"
"Dry Creek","DrCr3",NA,"8/5/2024",2024,64.92505,-150.57394,NA,NA,97,0,0,0,0.380540817975998,2,2,"subhygric","Sparse black spruce, tussocks","Deep organic soils with high soil moisture, adventitious roots don’t show signs of deep burning. Variable burning on trees. High regen of tussocks and birch shrubs. Understory also abundant in ledum and grass. 50 m away from open tussock area. Similar to DrCr1 and DrCr2, slightly more drained soils and more tussocks than DrCr2","49ba51b6-a059-4cb4-bfa6-471fbf11f067","ea3c7d47-2ac1-4ee6-bd96-70a31e2be201"
"Dry Creek","DrCr4",NA,"8/6/2024",2024,64.88567,-150.55754,NA,NA,108,0,0,0,0.825664460659027,3,2,"mesic-subxeric","Mid density black spruce","Shallow organic soils, some evidence of char from previous fire at organic mineral interface, organic soils include burned moss and fibric. Variable burning on trees, almost all trees standing. Understory grass, vacvit, ledum, equisetum. Scattered aspen saplings in the area with a dense stand of aspen saplings directly south of the transect, a few within the area of transect. 50 m away from mature unburned deciduous stand. ","f877d278-c7dc-4376-a468-2c1c80dfc9b2","d2233278-a987-489b-867c-c939e599e8fa"
"Dry Creek","DrCr5",NA,"8/6/2024",2024,64.88654,-150.55486,NA,NA,95,0,0,0,0.801695346832275,2,3,"mesic-subxeric","Mid density black spruce, willow","Shallow organic soils consisting of burned moss and fibric material. Understory grass, equisetum, willow regen, aspen seedlings. Trees fairly burned and mostly standing. 50 m away from unburned deciduous stand. Seedling counts in 3, 6, 9 m quadrats not representative of seedling counts, counted seedlings in 30x1 m belt on right side and had 5 spruce seedlings and 7 aspen seedlings. 3 diameters for spruce: 0.06, 0.05, 0.01 cm, 3 diameters for aspen:  0.25, 0.13, 0.15 cm. Ran out of stakes during site establishment, only 0m and 30m have stakes","dd7ec93d-1775-4d98-bd8d-10f592dd200a","879d8890-7cb5-4c5f-97bb-9120149093e7"
"Dry Creek","DrCr6",NA,"8/6/2024",2024,64.88749,-150.54665,NA,NA,93,0,0,0,0.642024517059326,1,2,"mesic-subhygric","Mid density black spruce","Many trees in this area including on our transect are bending over, many severely burned trees. Deep organics remaining, surface primarily burned moss. Understory ledum, calamagrostis, vac uli, vac vit. Seedling minimal but present throughout transect. Birch seedling also present. There is a small hill 20m north of transect and open tussock are 75m from transect. Ran out of posts during site establishment. Only 0 & 30m have posts.","b9bd69d0-814e-42c5-b423-bc21766af95c","328831b3-a141-4483-a52f-45ad26d5a5ce"
"Globe","Glob1",NA,"8/9/2024",2024,65.28139,-148.18616,NA,NA,177,0,0,0,0.188748300075531,NA,1,"subhygric","Low density black spruce, sphagnum, tussocks","Very mosaic burning with deeper burned areas, burned hummocks, and patches of unburned moss. Many shrubs still have burnt foliage. Almost all trees have green needles, will be super interesting to see if anyone survives. Crowns relatively untouched, but some combustion of lower half. Tussocks very burnt, but with good regen. Rubus and spirea regen. Some minimal standing water. Shallow thaw depth, 47 ish. Unburned birch on one side, spruce on the other","085c4e71-89da-4a09-8d1c-52af61c54b6e","ee786e27-e551-4686-9800-bde23c66b625"
"Globe","Glob1",NA,"7/31/2025",2025,65.28139,-148.18611,65.28167,-148.18611,178,0,0,0,0.188748300075531,1,1,"mesic-subhygric","High density low productivity Black spruce with ~1.5-2 meter spacing, erivag tussocks and abundant moss cover (feather moss and sphagnum) ","Site seemed pretty low severity with a lot of unburned moss hummocks. Permafrost was shallow around 50 cm. Thick organic with some patches around trees that burned more hot. Area is surrounded by unburned spruce and birch. So,e birch and spruce regen. Lots to tussock and RHOGRO and Spirea regen. ","c00210e8-1580-4bb9-8c67-6c8ac111433a","f31cc32e-839d-479d-99b9-f8adbae5a68d"
"Globe","Glob2",NA,"8/9/2024",2024,65.28362,-148.18996,NA,NA,186,0,0,0,0.602912187576294,NA,2,"subhygric","Sparse mid size black spruce, tussocks ","Low density black spruce, tussocks, some small birch, alder and bena. Scattered large islands of unburned moss, some clumps of burned, lots of burned. Tussocks with strong regen. Trees retain most fine branches  taller crowns escaped burning. Variety of tree sizes. ","0e125fcb-9d68-49b0-b0b9-a5e15b2925f1","d865d4c1-32dc-4cbc-b5d1-0ee79f88c760"
"Globe","Glob2",NA,"7/31/2025",2025,65.28352,-148.18996,65.28387,-148.1895,136,0,0,2,0.630643904209137,2,1,"subhygric","Black spruce high density low productivity with some birch","This site seemed to be a little more severe then globe 1 with little to no live moss. Permafrost was shallow at about 20 to 40. Think organic 30 plus cm. Some deep burning around tree but no visible mineral. Some birch arround site. Both birch and spruce regen. A lot of birch shrub hybrids around as well","84822c1a-220a-4e17-be4a-f6edf5f9c060","1f7c6230-4eaa-46d9-b1f1-19b7a9b11e06"
"Globe","Glob3",NA,"8/9/2024",2024,65.28218,-148.18823,NA,NA,182,0,0,0,0.48699563741684,NA,2,"subhygric","Sparse large black spruce ","Mid to large mid dense spruce. Some standing water. Remnantstree burned hummocks, ledum shrubs , few tussocks. 0m very near birch stand. Trees lightly burned, soil more severely burned. ","c75471ef-3a3b-46a0-87c9-891c9344edb4","adaa5c2d-6f79-443d-8e44-5b30b1015a58"
"Globe","Glob3",NA,"7/31/2025",2025,65.28221,-148.18825,65.28247,-148.18825,177,0,0,360,0.55408638715744,1,1,"subhygric","Black spruce medium density and productivity ","Area is surrounded by unburned spruce and birch. Site is low severity with patches of unburned moss. Permafrost is present about 60 cm. Standing water in some areas. Think organic with deeper burning around trees but no mineral exposed. Spruce and birch regen. Tussock and RHOGRO regen. ","1052f08f-76ee-4e7d-9834-9c4cc623aaaa","61707d9c-5b7e-4a68-87e4-1f610c8051b5"
"Globe","Glob4",0,"7/23/2025",2025,65.29176,-148.17326,65.29176,-148.17398,328,9,168,258,0.313530713319778,3,2,"subxeric","black spruce stand with some white spruce present","High severity burn area with a lot of organic combustion. However, deep organic layer still present. Little to no permafrost. Some birch regen at very low density. Very small. Highly productive south facing slope. All black spruce along transect.","dc664548-4b32-49a5-82f6-e47e8a26d3ab","19f3f90d-9674-4cd1-bc43-1be837c128ae"
"Globe","Glob5",NA,"7/23/2025",2025,65.29108,-148.17036,65.29099,-148.16991,321,12,189,98,0.668669581413269,3,2,"mesic","Black spruce with a few white spruce in the vicinity. ","Mid to low south facing slope. Some very small spruce and birch regeneration. Fairly deep organic and deep burning in spots, but highly variable. No permafrost. Lots of grass and equisetum. Some wet patches deep in the org soil. ","ea06f18e-12c5-456c-86d7-cf5c63d5b0d0","97644585-1997-41db-bb56-ec1423783564"
"Globe","Glob6",NA,"7/23/2025",2025,65.28645,-148.15176,65.28648,-148.15244,222,17,189,278,0.526519775390625,3,3,"subxeric","Black with a few big white spruce around. ","Deep burning. All trees fallen over. Rocky. No organic soil remaining. No organic samples taken. No regeneration. Lots of mineral soil and fire moss.","d6bf8b92-b073-4308-97ed-0e2ad345dd31","abf73776-328b-459f-866d-1c1c89e898df"
"Haystack","Hays1",NA,"7/14/2024",2024,65.17558,-147.6353,NA,NA,813,7,78,NA,0.659830927848816,3,2,"mesic-subxeric","Black spruce. Low density.","Lots of betula and willow. No exposed mineral soil.","1bda4af3-7396-40a3-ba12-377336a1aa9b","3b334af9-a45f-4f4a-a942-2ac5717eee8c"
"Haystack","Hays2",NA,"7/14/2024",2024,65.17706,-147.63258,NA,NA,723,2,202,NA,0.651243388652802,3,1,"mesic","Sparse black spruce, willows, betula. ","Organic soil patchy burned, more fine branches then hays1","384b4d95-7c46-49ef-95c7-b45d2b6a7da1","cc991fc3-9be1-4831-a696-586e14a00241"
"Haystack","Hays3",NA,"7/14/2024",2024,65.17498,-147.63118,NA,NA,704,8,95,NA,0.645237147808075,3,3,"mesic","Sparse black spruce, willows, bene ","Seemed lower severity than HAYS1 +2. Different in soil severity, similar in tree severity.","a23683be-02a8-4a1b-9b4a-773f6302ecab","c5e31609-bb88-4782-8ae6-209610bbe4e6"
"Haystack","Hays4",NA,"7/25/2024",2024,65.17747,-147.61681,NA,NA,701,11,158,67,0.30930358171463,1,1,"subxeric","Tall black spruce, some birch, willow","Very rocky slope, in mosaic of unburned stands. A few live trees on or near transect. Low severity burn visible in trees and soil, but most trees show at least signs of singeing. Most trees fairly large and tall. Some clumps of moss within belt remain unburned, though severely stressed. Little creek nearby. Mostly grass and shrubs. No seedlings in understory survey, and none obviously visual while sampling. Observational walk along transect revealed one PM seedling along entirety of transect! 2-3 PM seedling noticed on non-veg side of belt transect, but otherwise no sign of seedlings. ","ae5bff9c-c7ac-4dfa-b6a3-aa10548c7408","1d7357ef-8715-4dd9-9ed1-c7109074564a"
"Haystack","Hays5",NA,"7/25/2024",2024,65.1789,-147.61932,NA,NA,735,7,172,81,0.538592576980591,2,2,"subxeric","Low density black spruce, willows","Lots of willow regeneration and grass. Site close to ATV trail. Rocky soils. No seedlings present on transect.","01c30935-6870-4ad5-87aa-bf7b79708256","b3f77da7-b7e3-46bc-a513-2a7bf8cf89f8"
"Haystack","Hays6",NA,"7/25/2024",2024,65.17746,-147.62292,NA,NA,713,8,147,65,0.46743768453598,3,1,"subxeric","Low density black spruce, willows ","Low severity burn on trees, burned moss visible. Black spruce and aspen seedlings present in the area but not within transect belt. Very rocky soils with deep organic. ","a61b63ca-630c-4303-bde8-936c258dc946","a40101eb-48b2-458d-9340-8813b406995c"
"Hess Creek","HeCr1",179,"7/10/2021",2021,65.48892,-148.38425,NA,NA,391,7,134,NA,0.782004356384277,NA,NA,"mesic","Black and white spruce with loads of alder","Super rocky organic soils. Some spruce regeneration.loads of grass. Fairly low severity. ",NA,NA
"Hess Creek","HeCr1",179,"7/22/2024",2024,65.48885,-148.38408,NA,NA,326,13,194,81,0.782004356384277,3,1,"mesic-subxeric","Sparse spruce, some birch, alder, willows","Rocky. Shallow layer of gravel around 14cm that bread knife was unable to cut through but thaw probe sometimes could. Then very long slow hard push to next rocky layer at 70ish. Most trees are still standing, as opposed to patch we walked through to arrive at this site. Extremely grassy, best wild raspberries I’ve had. Ground very dry, mostly covered by thick mat of grass litter. LC plot 179","325f019b-be7e-4b29-8e43-da2da5311878","614e9876-38b0-46ea-9a53-ebceaca96600"
"Hess Creek","HeCr2",170,"7/10/2021",2021,65.48506,-148.37856,NA,NA,312,10,179,NA,1.02402675151825,NA,NA,"subxeric","Mainly black spruce some birch","Aspen nearby and aspen seedlings in transect; fire scars on black spruce trees suggesting multiple ages; medium severity; birch resprouts; spruce seedlings; took two large and two small tree disks because the larger ones probably survived the fire ",NA,NA
"Hess Creek","HeCr2",170,"7/22/2024",2024,65.48502,-148.37849,NA,NA,323,11,190,108,1.02402675151825,3,2,"subxeric","Black spruce and birch, willows","LC plot 170. Many trees remain standing. Smaller fallen, larger standing. SOL very thin in some areas, vey dry and crumbly in others. Lots of raspberries and fireweed, but some bare patches too. ","b44a17cf-8576-4f37-acda-f90ee4d1a57c","1ed4752e-4d0f-4eed-8f70-738a1819db65"
"Hess Creek","HeCr3",176,"7/11/2021",2021,65.47969,-148.35371,NA,NA,233,1,145,NA,0.510659694671631,NA,NA,"mesic-subhygric","Black spruce with one birch ","Legacy C probably burned: really heterogenous with deep org in places but others with exposed mineral",NA,NA
"Hess Creek","HeCr3",176,"7/22/2024",2024,65.47979,-148.35455,NA,NA,251,1,168,246,0.616119861602783,3,2,"subhygric","Wet, short dense black spruce.","Old LC site 176. On flat plain, use to be wet spruce, now overtaken by grasses. Some trees have fallen. Used old atv trail to walk here, mega overgrown but ok. Never hit ice ","7a786907-5580-4f40-b695-02f27074846c","e654b168-b01e-4b0b-8371-b84ef36ad452"
"Hess Creek","HeCr4",126,"7/11/2021",2021,65.48056,-148.35371,NA,NA,238,1,138,NA,0.184460788965225,NA,NA,"subhygric","Black spruce ","Many small trees, included counts in tree notes instead of measuring each individual; thick org, wet, hit ice, birch trees nearby; patchy burning ",NA,NA
"Hess Creek","HeCr4",126,"7/23/2024",2024,65.48053,-148.35361,NA,NA,256,2,159,64,0.184460788965225,2,1,"subhygric","Dense low stature wet black spruce, willow","Old LC site 126, quite a few unburned trees in the area. Low severity fire, lots of fine branches  trees and thick organic horizons. ","d181875b-4c42-4ec7-8de1-8fe967139b3b","07d6af38-88d4-4e4d-bc6c-17a87823d482"
"Hess Creek","HeCr5",164,"7/10/2021",2021,65.47813,-148.36069,NA,NA,217,0,0,NA,0.783845722675323,NA,NA,"subhygric","Black spruce","Aspect and slope is actually NA. Dense small cagey black spruce. Deep organics in some places. Very shallow in others (aka hummocks with gravelly mineral soil. Other places deep highly humid and Hit frozen ground. Some spruce regen. Moderate to high severity. ",NA,NA
"Hess Creek","HeCr5",164,"7/23/2024",2024,65.4781,-148.36072,NA,NA,234,4,180,90,0.783845722675323,3,2,"subhygric","Moderate density black spruce, willow","Old LC site 126. Lots of grass. Not much shrub regen. Many trees still standing. ","dec338df-263a-4d94-a3f8-5571919320d0","2116d1e6-7c73-42c4-8fb3-b84e6358bf30"
"Hess Creek","HeCr6",173,"7/10/2021",2021,65.48007,-148.3624,NA,NA,233,1,1,NA,0.637841641902924,NA,NA,"subhygric","Black spruce","Thick org; lots of spruce seedlings; slope is 0 and aspect is NA",NA,NA
"Hess Creek","HeCr6",173,"7/23/2024",2024,65.47998,-148.36237,NA,NA,241,3,169,335,0.637841641902924,3,1,"subhygric","Moderate density black spruce. Tussocks. Willow. ","Deep organic soil, many trees standing, mix of size, pretty dry, low (non ceratadon) moss regen","f031a2ab-59ef-4c6a-86cb-cf8a4d41054b","028c1d0a-dcfd-44a1-8871-6b14cbf2aa13"
"Isom","Isom1",1,"6/17/2023",2023,65.84867,-149.618177,NA,NA,388,9,352,NA,0.735444664955139,NA,NA,"mesic","Black spruc","Patchy high severity. Sol was duff",NA,NA
"Isom","Isom1",1,"8/8/2025",2025,65.84866,-149.61816,65.84863,-149.61877,397,9,352,262,0.735444664955139,2,2,"mesic","Black spruce high density medium productivity ","Site is upland. Couldn’t find original stake. Did our best to reconstruct the line. Site had little spruce and deciduous regen. Some permafrost was present from 60 to 90. Organic layer was was moderate at 10 to 20 cm. No mineral exposed. Lots of grass and willow. ","bacdec26-1549-466a-ab9c-78a24fe8ef5c","39a3e21b-7a1f-4e71-806b-7d83d1aa0e2e"
"Isom","Isom2",2,"6/18/2023",2023,65.849355,-149.61353,NA,NA,383,11,15,NA,0.602866232395172,NA,NA,"mesic-subhygric","Black spruce and birch","Mid to low severity burn. Patchy burn at site level, drainages unburned ",NA,NA
"Isom","Isom2",2,"8/8/2025",2025,65.84934,-149.61356,65.8438,-149.61424,383,11,15,285,0.602866232395172,2,2,"mesic","Black spruce medium density and productivity ","Site is on north facing slope. With live unburned trees surrounding the site. No permafrost only rock hits. SOL was thick at 20 to 40 cm. Live sphagnum hummocks were present. No exposed mineral. Little to no spruce or deciduous regen. Lots of grass and deciduous shrub regen. ","a5fde0de-b1ee-4cb2-8f3e-c7f63e7383e2","c5cc33b4-93da-4a26-8b77-0e8304da05c6"
"Isom","Isom3",70,"7/24/2023",2023,65.835099,-149.633125,NA,NA,354,1,283,NA,0.686965703964233,NA,NA,"mesic-subhygric","Black spruce, 4-7m tall","Trans bearing 1. Site located several hundred m north from dalton hwy. uniform burn pattern at site. Live black spruce visible at south end of site. Small depressions (<0.5m) present on transect and at site. Blueberries were excellent!  ",NA,NA
"Isom","Isom3",70,"8/8/2025",2025,65.8351,-149.63315,65.83483,-149.63335,365,1,283,193,0.686965703964233,2,2,"mesic","Black spruce high density low productivity ","Site looked to be moderate severity with unburned trees surrounding. Organic soil depth was between 10-20 cm. No exposed mineral. Permafrost was only present in plot A. Little to spruce or deciduous regen. Some salix and betula shrub regen. ","cfad2290-965a-4c81-b1eb-38667a5e78ea","531d73ce-4a52-4ac5-9ac6-a7f26bbae1d0"
"Isom","Isom4",71,"7/24/2023",2023,65.836261,-149.634115,NA,NA,351,1,315,NA,0.454307734966278,NA,NA,"mesic-subhygric","Spruce woodland ","Trans bearing 235. Site located several hundred m north from dalton hwy. patchy burn pattern at site. Live black spruce visible at south end of site. Small depressions (<0.5m) present on transect and at site.",NA,NA
"Isom","Isom4",71,"8/8/2025",2025,65.83628,-149.63411,65.83607,-149.63454,365,1,315,225,0.454307734966278,1,1,"mesic-subhygric","Black spruce high density low productivity ","Site was up land away from the pond. Permafrost was present but only on the first half of the transect.. patchy burning created areas with thick SOL up to 30+. Where in other areas it was 15 or less. Live sphagnum were present. Little to no spruce / deciduous regen. Mostly willow and db betula shrub regen","7bb34978-852c-42f2-bcfd-5ec57b92e267","77a4c853-38b8-47fc-b1e5-1b172a47bfcb"
"Isom","Isom5",72,"7/24/2023",2023,65.835371,-149.628609,NA,NA,352,2,160,NA,0.57962840795517,NA,NA,"mesic-subhygric","Spruce stand with salix alder and betula ","Transect bearing is 68. Site located several hundred m north from dalton hwy. uniform burn pattern at site. Spruce stand is all dead at site with live stand just east of transect. Small depressions (<0.5m) present on transect and at site.",NA,NA
"Isom","Isom5",72,"8/8/2025",2025,65.835653,-149.628606,65.83566,-149.62859,383,2,270,360,0.609617054462433,2,2,"mesic-subhygric","Black spruce high density medium productivity ","Found old stake for site. Medium severity site. Site had moderate organic at about 20 cm. Permafrost was present at about 60 to 100 cm. No mineral was exposed. No spruce or deciduous regen. Mostly salix and betula shrub. ","e172757e-622d-459d-b19e-03f6684369ab","09129c46-e078-4673-9389-6d784b9ae883"
"Lost Horse","LoHo1",NA,"7/15/2024",2024,65.16865,-147.64185,NA,NA,675,8,145,83,0.883846640586853,1,2,"mesic-subxeric","Low density black spruce, willows, bene","Site set up by MM in spring 2034, has aluminum stakes as plot markers. No dnbr at time of sampling, nearest points are low and med. by eye, I would call this low/mid severity. Orientation of plot was 83 degrees","3d8df608-9a94-4d28-9ecc-4418930f1772","2d338da7-7fc1-4c7e-9743-7f6c1add521b"
"Lost Horse","LoHo2",NA,"7/15/2024",2024,65.16996,-147.64754,NA,NA,705,8,146,34,0.987519204616547,2,3,"mesic-subxeric","Mid sparse black spruce, willow","Site set up by MM, has aluminum posts, orientation at 34 degrees, cross slope ish, no exact dnbr, but closest to mod","f0f90983-957f-42b2-8268-1b7b76c74c95","5b0b9574-61f1-41fa-b389-3b9d757fb60f"
"Lost Horse","LoHo4",NA,"7/18/2024",2024,65.16282,-147.66177,NA,NA,702,4,89,0,0.89976966381073,2,3,"mesic-subhygric","Sparse black spruce, tall willows, bena ","Moderate to high severity burn. Patchy burning, some trees only half burnt, soil shows signs of burning more than trees do. Fallen trees were not counted in tree inventory","254fb8be-2cd3-4c0f-a4dc-951588e271a7","edacb65c-fca4-4a7b-b21b-4e1ad40eac8c"
"Lost Horse","LoHo5",NA,"7/18/2024",2024,65.16473,-147.66335,NA,NA,691,2,315,0,0.841102361679077,3,2,"mesic","Mid density Black spruce and willow, betula nana","Trees low severity burned, thick organics, limited understory vegetation, a lot of shrub resprouting. Fallen trees were not counted in tree inventory","1db59ca9-c00d-46ff-8749-b5b6a769feb0","bcdbc859-e3b7-4496-b15a-f6644ce0ea15"
"Lost Horse","LoHo6",NA,"7/18/2024",2024,65.16173,-147.66177,NA,NA,690,4,90,0,0.724942803382874,1,1,"subxeric","Low density black spruce, willow.","GPS and elevation taken from Gaia, not gps. Patches of low severity and unburned moss. Some areas of thick ash layer on top of organic (2-3 cm) particularly near trees. Infrequent shrub regeneration. Large trees and lots of fallen trees. Near area of unburned trees. ","d0d803df-612c-4c2b-b0d9-b7862022e4a1","e0a3e16a-5d30-4a01-a092-692255494992"
"Lost Horse","Loho3",NA,"7/15/2024",2024,65.16893,-147.65102,NA,NA,696,4,122,0,0.933948636054993,3,1,"mesic-subxeric","Black spruce and willow","Orientation north, 0. Low severity site, based on visual inspection. ","d5e2f931-7667-46f3-b2bb-09a4435a556b","30593d79-6afe-4088-98c6-6a36b7483830"
"McCoy Creek","McCr1",NA,"7/28/2024",2024,64.5078,-146.42619,NA,NA,298,0,0,83,0.551434993743896,2,2,"subhygric","Dense small black spruce, tussocks.","Lots of standing water. Sol thick, but obvious that fire moved through soil not through crown. Crowns of trees totally intact. Aluminum posts inserted by MM in fall 2023. Posts are slightly displaced from 30m, thever a slightly longer distance. Spruce seedlings common! Tussocks resprouting, though burned into pillars. ","08b7ef59-e294-4a10-bb2d-b2da872cee1d","3dee7f96-b961-4db2-9dd0-7c4e4f50e23b"
"McCoy Creek","McCr2",NA,"7/29/2024",2024,64.50567,-146.45302,NA,NA,243,0,0,54,0.522469937801361,2,2,"subhygric","Dense small black spruce and tussocks","Aluminum posts set up by Mario in fall 2023, difficult to access from river due to downed trees, trees mostly standing, crowns relatively intact, some standing water, some burned sphagnum hummocks, dead larch in area","f06878a9-4651-4bbd-8823-57debe44dfef,e2318f44-cd96-4d39-9f1a-ee803746887c","206af2b6-412a-459b-b6c1-edd3ae13db1a"
"McCoy Creek","McCr3",NA,"7/29/2024",2024,64.50671,-146.4529,NA,NA,244,0,0,0,0.550431251525879,3,3,"subhygric","Dense black spruce and tussocks ","75% of trees upright, rest fallen. Trees show signs of high severity fire. Veg present includes Marchantia, Rubus cham., ledum gro., equisetum, chamerion Ang. Some birch seedlings observed in plot. Tussocks severely burned. Mature mixed forced 50-100 m away, could act as birch seed source. Patchy burning with deep organic soils in some areas and shallow in others.","e43a353e-1f97-4a3c-9cf4-981e103cb05e","b4a45851-5948-4281-8409-d612a9393333"
"McCoy Creek","McCr4",NA,"7/28/2024",2024,64.48589,-146.35037,NA,NA,259,0,0,0,0.591534614562988,3,3,"mesic","Dense relatively sizeable black spruce. ","Small ridge in middle of transect, between tussocky black spruce near river and mixed stand on the other side. Highest severity fire we’ve seen so far. Organic soil completely burned, almost ALL trees down with crowns mostly intact and heavily burned roots. Ground cover thin layer of char over mineral, lots of ceratodon and Merchantia. Noted trees black spruce because of cone bearing. ","46d4fdc9-402e-4e49-abc5-212e61ce9029","a73d6ba8-44dd-4234-8e39-2d04ac690644"
"McCoy Creek","McCr5",NA,"7/28/2024",2024,64.48677,-146.35432,NA,NA,271,0,0,0,0.479730933904648,2,1,"subhygric","Mid density black spruce with tussocks","Low severity burn, sphagnum humps remain intact, trees all standing with crowns intact. Soils very deep, ice close to surface, not much standing water. A few live trees in area. Moderate amount of spruce seedlings. ","d4ba3d24-e55b-4289-a8a1-a8438e71b59e","b80d7a9f-7b53-4fe4-a222-18138764bb72"
"McCoy Creek","McCr6",NA,"7/29/2024",2024,64.48573,-146.35854,NA,NA,267,0,0,0,0.378506630659103,1,2,"subhygric","Mid dense moderate size black spruce, willows, some, tussocks. Larch in the area!","Weird site,sorry in advance. Some live trees near transect, some standing water, some fallen trees. Overall a weird hodgepodge of features. Not many low severity dnbrs in this area that are actually burned and actually black spruce forests, which is why we stuck with this weird site. Ground is burned even where trees are living. Raining, so couldn’t use whiteboard for photos","6760900a-3887-4dcf-87c3-534302d57389,66958850-773d-4557-8557-94ff97a3171a","c82beac9-ade1-4e75-b46c-9b9f87fd784b,a3319170-d5b4-4428-9ab7-a118d9bf2584"
"McDonald","McDo1",NA,"8/8/2024",2024,64.31391,-147.0081,NA,NA,247,0,0,0,0.681580722332001,NA,3,"mesic-subxeric","Sparse black spruce, willow
","High severity burn, patches to bare mineral,moss completely burned. Trees relatively large, half standing half fallen. Moderate burning on trees. Little regrowth, some willow bena, grass, petasites, rose. Lots of ash. Soil quite dry. Only microbial sampling completed ","a3e51a33-4e2f-416e-a56b-ccfa89ff729d","05f915aa-31dc-494f-b95b-e2bcb911c304"
"McDonald","McDo1",NA,"7/25/2025",2025,64.31387,-147.00812,64.31412,-147.00803,244,0,0,8,0.681580722332001,3,2,"mesic","Black Spruce moderate","Permafrost present but deep, patchy burning, burnt moss present with some mineral soil present around trees. No tree regen. Some shrub regen.","f87ce213-bd87-4180-9c29-c72255d81c53","457d9b84-3a7e-4a77-ab01-ae933d6f9aab"
"McDonald","McDo2",NA,"8/8/2024",2024,64.31506,-147.00833,NA,NA,250,0,0,0,0.739443242549896,NA,2,"mesic-subxeric","Moderate midsized black spruce, moss hummocks","Moderate spruce, mid size. Some burned moss hummocks that have regen. Hit water while coring. Deep organic layer. Trees moderately combusted. Low regen, mostly grass, some willows, tussocks, petasites. More diversity in hummocks with ledum and vaculi","d22d80f9-ce55-4be1-8509-64a5d698cd24","fe0518cb-57c0-4a04-9681-6209a170bacd"
"McDonald","McDo2",NA,"7/25/2025",2025,64.31506,-147.00832,64.31535,-147.00821,244,0,0,9,0.739443242549896,2,3,"subhygric","Black spruce ","Low severity burning. Wet. Some spruce regen but sparse. Permafrost around 70. Twenty cm of organic soil. Relatively low tree combustion. ","181c3712-caae-4d1e-959b-8de31dd5ae3c","4fc1cfab-8aff-42c9-a307-f36e68a287b8"
"McDonald","McDo3",NA,"8/8/2024",2024,64.31544,-147.00316,NA,NA,245,0,0,0,0.661708056926727,NA,1,"mesic-subxeric","Low black spruce density","Low density mid to large black spruce. Very similar understory. Quite mosaic burning, with patches burned to mineral, lightly burned moss hummocks, and even standing water. Trees less burned, but along transect variability. Grassy swale at one end, severely burned blowdown at the other. Grass, petasites, willow regen. A liiiittle bit of tussocks. Mid to large organic layer. ","c8e72a60-f4b2-4eef-9a93-c85ae0db46be","aad44cf4-a654-4e23-bebf-f6e66aca37c1"
"McDonald","McDo3",NA,"7/25/2025",2025,64.31545,-147.00314,64.31582,-147.00343,244,0,0,3,0.661708056926727,3,1,"subhygric","Black spruce high productivity ","Site is drier at 0m mark and gets progressively wetter the further N to go down the transect. Standing water in plot C. Lots of spruce regen on north end of site. Some many super little seedlings. Lots f grass and some salix and betgla regen. Burned moss hummocks however deep burning is present in spots. Permafrost is present around 70 to 100 cm. ","7ceec952-5763-46ab-9289-e936b7557094,677f44dc-6fb2-49c0-9251-bd424a3bacda","1a5c0972-5e66-4cb8-a78a-f123dac9d516"
"McDonald","McDo4",NA,"7/29/2025",2025,64.32172,-147.04355,64.32198,-147.04353,246,0,0,0,0.699959754943848,1,1,"subhygric","Black spruce low productivity high density with same larch present ","Site is a little off from the random point. Random point looked to be medium to high so we moved into a more lower severity area. On the north end of the site there is an unburned patch. Some standing water throughout site. Deep organic layer. Over 30cm in same places. Permafrost present around 70 cm. Very few spruce regen with some regen present. Mostly RHOGRO and salix.","eee103a6-c794-4ec5-b59d-5c1382805429","2ac73aa5-eb60-4666-9bbb-e5920ea5135e"
"McDonald","McDo5",NA,"7/29/2025",2025,64.32221,-147.05086,64.32247,-147.05087,243,0,0,358,0.49439001083374,1,1,"subhygric","Black spruce high density low productivity ","THERE IS A BEES NEST AT 19 M!! On left side heading from 0 to 30. Site was classified as medium severity, however we agreed it was low. Moved from the random point about 20 m to avoid live trees. Permafrost was present and shallow especially under burned moss. About 60 cm. Water logged site. Very deep organic layer. Lots of mossy patches that were lightly burned. Very little spruce regen. Both BETNAN and BETGLA present with some salix. ","b03af6f6-5a4d-4a2b-b238-a52c9e89937e","ce635053-594b-47c6-bd2f-1bc2fae17c70"
"McDonald","McDo6",NA,"7/29/2025",2025,64.32262,-147.04695,64.32254,-147.04709,202,0,0,354,0.640869319438934,2,2,"subhygric","Black spruce low productivity high density with some larch","Random point was under water with some live trees present. Moved point a few meters south and had 30 m end point closest to random point. Site had patchy burning with some mineral soil present. Permafrost was present and shallow. Think organic patches. Little spruce regen. Medium severity site surround by low severity to un burned areas.","908f15d3-f431-4cf5-b983-2ee26c054218","6a945483-cd90-4906-aa3a-f9d003cc68ab"
"Munson Creek","MuCr1",NA,"8/1/2024",2024,64.98873,-145.82089,NA,NA,370,3,323,323,0.512275457382202,2,2,"mesic-subhygric","Mid density, mid height black spruce, sphagnum and tussocks. Scattered alder and willow.","Heterogenous ground cover with some sphagnum and tussock regen. Patchy soil burning and mixed burning on trees. Transect set along slope to fit in burned area. Veg survey didn’t capture sphagnum tussock presence. Did a seedling count at 9 A B and C and a full veg quadrat at 0 to survey sphagnum. Few birch seedlings in area, captured 2. Understory ledum, grass, birch shrubs, tussocks. ","62f27b88-a85f-442d-be61-573c019a21da","29f6585b-d840-4525-8019-3d5d895ff428"
"Munson Creek","MuCr2",NA,"8/1/2024",2024,64.98698,-145.81917,NA,NA,405,26,349,82,0.648391962051392,3,2,"mesic","Tall, medium density black spruce, sphagnum","Unburned sphagnum patch (!) from 11-14m. Seems like there is a mosaic of often burned sphagnum patches and ground where the organic has burned away to bare rock. We sampled soil at 16 and measured at 19, and did veg in 13, 16, and 19 in order to pair with soil but also capture that sphagnum plug. Fairly deep organic, including burned moss. Very rocky below organic with limited mineral soil mixed with large rock. Stretches of transect have exposed rock. Ceratadon, polytrichum, fireweed and Vaccinium growing on burned patches, ledum and vacvit on unburned patch. Downed CWD highly burned, mixed severity of burn on trees. Consistent black spruce seedlings across transect with scattered birch seedlings","f3d0e279-55f0-4894-9c7f-23919eec0703","adc0171a-9a82-443f-9467-ac2a3ee257b6"
"Munson Creek","MuCr3",NA,"8/1/2024",2024,64.98544,-145.82373,NA,NA,363,7,334,30,0.398088335990906,1,1,"mesic-subhygric","Dense tiny black spruce, tussocks, some alder","Not many actually burned low severity sites in this area. Transect fit to just the available spot. Some birch 20m upslope. Grassy swale NE. Ground burned in patches, regrowth impressive. Trees have low signs of burning, though scorched. Little creek running underground near 0. Relatively few seedlings but consistent along transect. Wet soils, standing water at depth. Frozen ground. Lots of tussock regen. Variation in tree height, tho all small","493bdcca-f224-4dcb-a0dc-eea06deb9157","e6aae553-efe1-434c-8113-ad31fc1e58c8"
"Munson Creek","MuCr4",NA,"8/4/2024",2024,65.04213,-145.97568,NA,NA,474,26,57,155,0.684703886508942,3,2,"mesic-subxeric","Low density black spruce. Some willow and betula shrubs","Patches of burned sphagnum remaining, patchy soil burning with areas of relatively shallow organics. Organic mineral interface at this site is characterized by many small rocks mixed with the bottom of organic soil. Understory fireweed, ledum, birch shrub regen, grass, vaculi. Some spruce seedlings present. ","8f672145-df57-4bdf-b9cc-ca029c418864","4cd2aa4e-a09e-4b13-a967-4542398c7ee1"
"Munson Creek","Mucr5",NA,"8/4/2024",2024,65.04068,-145.97893,NA,NA,497,24,292,202,0.579725623130798,2,2,"mesic-subxeric","Mid density black spruce, a few birch","Mature birch trees in surrounding area and a few unburned black spruce downslope of transect. Thick organic soils remaining, lots of burned sphagnum hummocks remaining. On side of steep slope. Understory ledum, polygonum. Minimal seedlings. Trees pretty much all standing. ","cd3a8b36-593a-45e9-b596-c82ae9498f03,71793795-2fa8-498a-99ef-be8b8be6f46e","4370e96a-0a1f-4a08-8eac-fa62ff1e38e5"
"Nugget Creek","NuCr1",NA,"7/30/2024",2024,64.86044,-146.45973,NA,NA,501,3,113,113,0.610163152217865,2,2,"xeric","Dense tall black spruce, willow","Site at the top of the ridge. Lots of downed, lightly burned trees. Many seedlings of spruce, aspen, birch present. Polytrichum abundant. Soils rocky, below surface is a mixture of char, prefire organic, fine roots, and mineral/ash. Lots of willow resprouts. Difficult to distinguish whether trees were snags prefire. Transect not oriented north to south, slope here is along transect","7a2c1b60-0ead-4e00-991a-6f2ae071aa2f","886a8dfc-42a0-49c1-b735-d325e1d26390"
"Nugget Creek","NuCr2",NA,"7/30/2024",2024,64.85931,-146.45433,NA,NA,496,9,47,147,0.581643223762512,1,1,"subxeric","Large low density black spruce, sphagnum, mixed forests nearby","Most trees scorched but not heavily burned, lightly burned moss with some patches of unburned sphagnum. Very patchy heterogeneous site. Equisetum, ledum, willow, Rubus, Vaccinium understory. Patchy areas with high seedling regeneration of spruce and birch","bb009c44-3d8b-41f9-8b03-16d44a85d10d","427009d9-2318-4585-8f18-a34fc85547bf"
"Nugget Creek","NuCr3",NA,"7/30/2024",2024,64.85865,-146.45856,NA,NA,481,18,208,302,0.471771240234375,3,2,"subxeric","Moderate dense black spruce, scattered birch","Very little burning on trees, thin organic soils, high birch tree sprouting, dense downed pre fire trees almost all down, 30m away from mature birch stand, polytrichum and ceratadon. ","301a016e-dcd5-4734-882c-0860832a0a5d","41e3b80f-5665-4c38-95a2-1803d5a9f660"
"Nugget Creek","NuCr4",NA,"7/31/2024",2024,64.88116,-146.51077,NA,NA,304,6,245,155,0.426229774951935,1,1,"mesic-subhygric","Tall black spruce, prefire snags present","Heterogeneous site, understory equisetum, ledum, grass.
40m away from unburned black spruce.","180d4f21-41b4-489d-a60a-6bac4fa64d6a","f5267b8a-e53e-475a-a62a-2af891648570"
"Nugget Creek","NuCr5",NA,"7/31/2024",2024,64.88296,-146.51244,NA,NA,300,9,234,142,0.259828567504883,2,3,"mesic","Open tall black spruce ","Understory includes epilobium, calamagrostis, equisetum. Rocky soils with shallow organics, lots of polytrichum. All downed trees with clear burning.","2af63bce-ee37-4ad6-b83a-85f1993a2c95","c8e48481-d44f-4998-94e7-eaa55acee600"
"Nugget Creek","NuCr6",NA,"7/31/2024",2024,64.88338,-146.50885,NA,NA,337,12,229,140,0.462121576070786,3,2,"subxeric","Tall low density black spruce, a few birch","Very rocky soils, with many small shale rocks mixed into mineral soil and very little prefire organic. Char layer mixed with mineral that appears like it may be upslope runoff. Ground cover polytrichum and ceratadon. Understory fireweed, grass, spruce regen. Almost all prefire trees downed, a fair amount of prefire trees appear to have fallen and then had crowns burn, although many lightly burned downed trees are present. A lot of spruce seedlings, a few birch seedlings present.","d429c39f-1ef8-4d49-bb7c-e2e2200c9863","c564b9a6-55b0-4ced-99eb-0b59af7beb0b"
"Shovel Creek","ShCr1",18,"7/5/2021",2021,64.95943689,-148.1654613,NA,NA,436,16,264,NA,0.552969455718994,NA,NA,"mesic-subhygric","BS","Low severity. Some unburned sphagnum patches. ",NA,NA
"Shovel Creek","ShCr1",18,"7/16/2024",2024,64.95871,-148.16973,NA,NA,441,12,254,341,0.1968974173069,2,1,"mesic-subhygric","Black spruce and alder","Previously LC 18","3647cba1-7f8b-48cb-a946-7292d76bead0","f6de8dc4-f3c6-47e3-8324-4fee9feba815"
"Shovel Creek","ShCr2",26,"7/5/2021",2021,64.9594,-148.16544,NA,NA,476,13,285,NA,0.552969455718994,NA,NA,"mesic","Black spruce","High severity; trees fallen over;  one small patch of organic soil at 3m, but deep burning everywhere and exposed mineral soil. ",NA,NA
"Shovel Creek","ShCr2",26,"7/16/2024",2024,64.95939,-148.16544,NA,NA,476,14,278,12,0.552969455718994,2,3,"mesic-subxeric","Black spruce","All trees fallen. Double check it matches with original.","54014d15-245a-4d20-a53f-443d8483c6db","40900a24-85bb-4a11-8ffd-74d01bc2bf57"
"Shovel Creek","ShCr3",60,"7/5/2021",2021,64.9589,-148.24605,NA,NA,540,13,288,NA,0.908018290996552,NA,NA,"mesic-subhygric","Black spruce ","Patchy burning; lots of exposed mineral soil; rocky no thaw depths; lots of seedlings",NA,NA
"Shovel Creek","ShCr3",60,"7/16/2024",2024,64.95885,-148.24617,NA,NA,547,14,288,28,0.908018290996552,3,2,"subxeric","Black spruce","Very rocky. ","6c54507d-bd4e-4294-81ad-cb80b198d3f3","cd4cb86d-6015-4e06-ba80-8fef388d2590"
"Shovel Creek","ShCr4",8,"7/5/2021",2021,64.95412,-148.2617,NA,NA,517,15,312,NA,0.0750665664672852,NA,NA,"mesic","Black spruce ","N convex landscape position low severity with lots of sphagnum",NA,NA
"Shovel Creek","ShCr4",8,"7/16/2024",2024,64.95408,-148.2621,NA,NA,516,22,322,60,0.0750665664672852,1,1,"mesic-subhygric","Black spruce","Rocky outcrops. Concave. Surrounded by unburned. Do not like the site. Regen of everything! Old LC site 8","05185acf-86f9-4977-83cb-c85dea7a6a21","1d470294-57cb-4396-9550-81a26756da2d"
"Shovel Creek","ShCr5",41,"7/3/2021",2021,64.9498674,-148.2947491,NA,NA,686,7,275,NA,0.459898740053177,NA,NA,"xeric","Black spruce","No thaw depth too rocky. Slope = 7 degrees Aspect = 275 Lat = 64.94985 Lon = 148.29469 elevation = 686",NA,NA
"Shovel Creek","ShCr5",41,"7/17/2024",2024,64.94984,-148.29456,NA,NA,685,12,283,324,0.459898740053177,2,3,"xeric","Big black spruce.","Loads of CWD. All trees fallen. Exposed rock. Low regen. Old LC ID 41","215a9e55-445b-4fe7-9b59-5b0413db038a","641fa46b-06da-4f64-9f48-5f498178ec7c"
"Shovel Creek","ShCr6",47,"7/20/2021",2021,64.94795,-148.31549,NA,NA,686,15,352,NA,0.64884352684021,NA,NA,"subxeric","Black spruce","Rocky; thin organic; only 1 mineral collected; lots of shrub resprouts; trees had low combustion",NA,NA
"Shovel Creek","ShCr6",47,"7/17/2024",2024,64.94801,-148.31558,NA,NA,647,8,348,77,0.64884352684021,3,2,"mesic-subxeric","Black spruce. Sparse and large. ","Old LC ID 47. No seedlings regen. NAU photo site. ","cd949303-d0d3-48d5-af8c-9ab1d6238152","69cb1151-731c-46ca-be0a-f7147ef2d15b"
"Slate","Slat1",NA,"8/10/2024",2024,65.20104,-148.48616,NA,NA,127,0,0,0,0.61456310749054,NA,3,"mesic-subhygric","Low density mid to tall black spruce, tussocks, some moss hummocks","Ground severity high, many trees missing fine branches. Almost all moss burned away. 50 thaw depth, water close to surface, but no standing. Very little regen except for erivag. Small match of high severity, but seems representative of landscape hedges unburned/low severity black spruce and moss hummocks. ","a4ed2e2c-0422-4480-b928-e30ceaf402bd","98eec35e-78fc-4d5f-88d9-4755d1955520"
"Slate","Slat1",NA,"7/26/2025",2025,65.20097,-148.48613,65.20125,-148.48615,117,0,0,0,0.61456310749054,1,2,"subhygric","Black spruce and tussocks.","Mid to low severity tree burning. Low surface severity. Burned tussocks. Thaw at 60-50 cm. A few spruce regenerating. Lots of burned organic/moss surfaces. Shallow water table. ","ce8710c0-e648-4a1d-92bd-b05179a041a3","c24f8055-d35c-4c63-8e39-9960b688920c"
"Slate","Slat2",NA,"8/10/2024",2024,65.1998,-148.48158,NA,NA,124,0,0,0,0.717092752456665,NA,2,"mesic","  Mid density black spruce, moss hummocks","Trees mix of standing and fallen. Grounds looks quite burned, trees moderate. Very little regen, little to no standing water tho it’s close to surface. Thaw depth to frozen ground 42ish. Mid size patch of similar, nearby unburned and low severity burned spruce","05d994f6-3773-44b9-9884-3a6729518c48","52176c76-c813-4cb8-898e-e38df19157c6"
"Slate","Slat2",NA,"7/26/2025",2025,65.1999,-148.48169,65.20004,-148.48157,114,0,0,0,0.717092752456665,3,2,"subhygric","Black spruce high density low productivity ","Permafrost close to surface. Patchy burning with some mineral showing while moss is present in other areas. Really wet. Standing water. Tussocks and sphagnum around. Soupy soil samples. Minimal black spruce regen.","4b08ef8f-d21f-4f4e-9efa-4e46787ef824","5205865e-d6c5-4ad8-afae-d77aac4ccc54"
"Slate","Slat3",NA,"8/10/2024",2024,65.19993,-148.47722,NA,NA,122,0,0,0,0.500281453132629,NA,1,"mesic-subhygric","Moderate black spruce, tussocks","Mid size mid density mid combustion black spruce. Ground mostly tussocks. Not much other regen. No standing water, but close to surface. Shallow thaw depth. Smallish patch, typical for this area. Near unburned spruce. ","340e999e-2ecf-43d0-80d2-a576f278afa2","8e705f89-c0f8-4454-abca-05c1f1530e61"
"Slate","Slat3",NA,"7/26/2025",2025,65.19973,-148.47748,65.20021,-148.47717,91,0,0,360,0.558947026729584,1,2,"subhygric","Low productivity black spruce. Tussocks and burned sphagnum","Very wet. Standing water. Permafrost around 50cm. Some small spruce regeneration. Water table at mineral soil surface. Low severity burning. Landed in sphagnum bog - helicopter couldn’t stay with us. ","ab4c0cf3-22a5-4e2d-be2d-e652362df0ec","33b4a7c5-188f-470a-baf9-ab07d9ca729d"
"Slate","Slat4",NA,"8/10/2024",2024,65.18306,-148.49866,NA,NA,124,0,0,0,0.595691084861755,NA,1,"subhygric","Low density mid size spruce. Sphagnum, few tussocks, many shrubs. ","Sparse spruce. Low to mid burning. Burned/dead sphagnum understory. Quite wet! Grass and some tussock regen. Lots of burned shrubs. Between two slight hills that have decid trees. Deep organics - didn’t hit mineral. 48ish thaw depth","7cca1b78-f152-4770-8ee9-feff3dc3d966","61273b29-2c65-4c3c-8042-4355b4493a3b"
"Slate","Slat4",NA,"7/27/2025",2025,65.251144,-148.474339,65.25092,-148.47392,261,3,225,138,0.785884261131287,3,3,"mesic-subxeric","Black spruce high density and productivity surrounded by birch tree","On south west facing slope. High severity burn site deep burning with mineral soil present. However some patched of organic are present. No permfrost. Lots of downed trees. Mostly fireweed present. Site is all black spruce but it is surrounded by birch.","906e280a-fcdd-4ea7-83bd-18e545b41d80","6a476fc5-fdbd-47a7-b99a-4f2713b419b4"
"Slate","Slat5",NA,"8/10/2024",2024,65.18204,-148.49489,NA,NA,128,0,0,0,0.663870871067047,NA,3,"subhygric","Mid density mid size black spruce, feather moss ","Mid density tall black spruce. Another small patch between low severity tussock bs and sphagnum and unburned decid. Trees very burned, low regen, only some grass, ground variably burned with burned feather moss patches and some down to mineral. That depth 70ish. A bit of standing water, not much. Most trees standing. ","d9203705-5fbb-45d2-93b4-182f86e5b054","0a817f3f-0867-4e2f-93cf-2bbfba2cbe48"
"Slate","Slat5",NA,"7/27/2025",2025,65.24859,-148.47292,65.24854,-148.47227,151,3,190,100,0.793016314506531,2,3,"subxeric","Black spruce. All fallen over. ","Deep burning. Trees fallen. No regen…except for one spruce seedling. Lots of exposed mineral soil. Few patches of shallow organic left. Tried to sample the organic in those spots. No thaw reached..dense mineral soil at depth. Note this is NOT the same slat5 as last year. ","98e9a305-5fbe-4f08-8337-61d279adf341,945a84ba-c8dd-40d5-ab9e-1a857eff875d","b7e0a127-d9af-4db6-b996-3f13d5fabcd1"
"Slate","Slat6",NA,"7/27/2025",2025,65.24952,-148.46826,65.24958,-148.46756,157,4,168,78,0.798560619354248,3,3,"subxeric","Black spruce low density high productivity with birch and aspen near by","South east facing slope. Patchy burning with mineral exposed and some organic present. Very 
Large black spruce. Some of the biggest Xanthe has seen. Lots of aspen regen around. Some down tres but not as many as last site. Trees are not flagged","51e1febe-87b5-4faf-affd-74adcbf9c300","30e23531-9b6f-480c-b55a-5882c2c4d05d"
"Teklanika","Tekl1",NA,"8/3/2024",2024,64.41264,-149.40686,NA,NA,134,0,0,0,0.839214563369751,2,2,"mesic","Dense black spruce. Some larch.
","Trees very burned here, but organic relatively intact. Not much microtopograohy. Ledum vac uli some grass regen. One large dead birch, with regen. Weird little group of potr seedlings by plot c. Hard to distinguish larch from black spruce when all branches are burned, so may have some miscounts of shorter larch as bs. Very wet nearby. ","2377c34a-e8d5-4b43-a5dc-ebdfbf105612","12fd9650-b57d-45d2-bfec-7f760467fcae"
"Teklanika","Tekl2",NA,"8/3/2024",2024,64.41036,-149.40601,NA,NA,141,0,0,0,0.375745385885239,3,3,"mesic-subhygric","Tall low density black spruce","All trees in the area downed and severely burned, with many burned root balls. Heavily colonized by marchantia and fireweed, some ceratadon. Organic soils mostly fibric and humic remaining.","556659e2-0fba-447d-9e85-3560165387ab","919fed49-ebff-470b-9ba5-e5d85bb4aebe"
"Teklanika","Tekl3",NA,"8/3/2024",2024,64.4094,-149.40317,NA,NA,141,0,0,0,0.445273488759995,2,1,"subhygric","Dense, medium stature black spruce","In depression below two areas with high blowdown. Lots of standing water. All trees along transect standing, fine branches most completely intact. Even some shrub still have dead foliage. Fair bit of larch. Willow be a regen. Completed microbial sampling. Did soils, veg, browns, cwd, disks, site, but NO pre fire tree inventory. ","04967325-84ac-4fa7-9f39-29389f023a93","6d02630c-f6c4-44d2-ba00-4d1754d69202"
"Teklanika","Tekl4",NA,"8/2/2024",2024,64.39559,-149.40607,NA,NA,142,0,0,0,0.479271173477173,1,1,"mesic","High density, mid stature black spruce.","Rocky soils, prefire organics mostly fibric, some burned lichen and limited burned moss. Regenerating understory is ledum and vac uli. Many burned trees still standing with intact crowns, a few patches along transect with downed trees. Transect runs between 2 areas of very low severity burn with live trees and unburned sphagnum hummocks. Mineral soil very sandy","c75ba248-8e52-4183-8d05-3f8c3d43539c","a835c6ba-5774-47ed-87af-90d0a4f4f75b"
"Teklanika","Tekl5",NA,"8/2/2024",2024,64.39595,-149.40958,NA,NA,143,0,0,0,0.723195731639862,3,3,"mesic-subhygric","Mid density black Spruce, tussocks","Soils with surprising amount of organic remaining. Trees completely burned, it all standing. Equisetum, ledum, willow regen. Not much tussock regen. Some patches of mineral soil exposed, tho not captured in soil sampling. ","8c39f3b7-d97a-4e2f-b8c9-03ef27076dcf,14ed680e-6c14-42d4-a171-d07858d06354","9866f85d-8768-4563-a77e-3dffbabd9685,0119fc4f-633d-4a84-b2a5-49ca9ce37e0c"
"Teklanika","Tekl6",NA,"8/2/2024",2024,64.39443,-149.41043,NA,NA,148,0,0,0,0.647553205490112,2,2,"mesic","Mid density mid size black spruce. ","Organic soils decent, mineral sandy. Trees lightly burned, grounds well burned. Almost all trees standing. Grass, ledum, willow regen. ","fe557f9f-5e2c-4f85-b832-d994ab89e093,0b0ec9a5-b7d0-4eda-a687-43f1a9870c9c","650557ff-a999-430e-b3ba-1233117ac311,231e0820-f968-426b-a431-aae16eec8a3b"
"Troublesome","Trou1",NA,"8/2/2025",2025,65.47184,-149.76488,65.47208,-149.76469,651,10,129,39,0.755142688751221,3,3,"mesic-subxeric","Black spruce medium productivity and density with some white spruce present ","Moved site about 10 m from orginal random point to avoid white spruce trees. Site is on SE facing slope. Permafrost was not present. Rocky site. Organic layer was shallow. Under 15cm for all depths. High severity site with mostly colonizing mosses. No sprce or deciduous regen but so,eh betula shrub and salix was present.","68f86480-6245-44b6-ad84-992d0228a02a","0e972f5c-1a21-4215-99d0-689cf14002cc"
"Troublesome","Trou2",NA,"8/2/2025",2025,65.47054,-149.7621,65.47082,-149.76207,624,15,88.5,358.5,0.554355084896088,2,2,"subxeric","Black spruce low density medium productivity ","Site is on east facing slope surrounded by unburned spruce. So,emwhite spruce are surrounding the site. Had a difficult time determining severity. Group agreed it was medium severity. No permafrost. Organic depth was between 10 and 20. Very little spruce regen. Saw no deciduous regen. Mostly salix and betula shrub. ","b727ae57-cbf5-40c9-988d-2cacbf0ca285","40acdfa9-a351-4535-a7e0-d2ac210212a6"
"Troublesome","Trou3",NA,"8/2/2025",2025,65.47077,-149.76913,65.4706,-149.76863,665,4,200,110,0.739985346794128,3,2,"subxeric","Black spruce high density medium productivity ","Site is on SW facing slope. Trees are pretty burned up while soil organic layer was about 15 or less. No permafrost. Really rocky. No spruce or deciduous regen. Lots of willow regen with some betula shrub. ","ea5e9966-100e-44ea-84ca-a10a37095ee2","c54607b6-508e-4853-9951-10857a781b8b"
"Troublesome","Trou4",NA,"8/5/2025",2025,65.47358,-149.76372,65.47373,-149.76379,627,6,90,360,0.583457171916962,1,1,"mesic","Black spruce stand medium productivity and density ","Site is on NE facing slope. Permafrost is present. Site has think organic with mineral under. Deeper patchy burning in spots especially around trees. Live moss present. Site is surrounded by live tree on the SW side. Some spruce and birch regen with Betula and salix shrub regen as well.","989028a3-c6ad-46be-9054-b64f175abc5a","344e6e4a-81b0-457f-bb49-251a98e9cf89"
"Troublesome","Trou5",NA,"8/5/2025",2025,65.47419,-149.76332,65.47419,-149.76395,624,23,358,268,0.530791997909546,1,1,"mesic-subhygric","Black spruce low density medium productivity ","Site is on a north facing slope. Steep slope! Permafrost was present. Organic layer is think with live sphagnum hummocks present. Low severity site with some deeper burning around trees. Some spruce regen. Mostly betula shrub, alder and willow regen.","260194b5-e641-4fea-8072-4c04a11662b7","724e32f3-e6b1-4492-acb0-ee6b6ed04435"
"Yukon Creek","YuCr1",NA,"8/1/2025",2025,64.65274,-145.93584,64.65251,-145.93605,359,7,322,215,0.476648241281509,2,2,"mesic","Moderate productivity high density black spruce with with alder.","A little hard to determine fire severity.  A lot has grown back.  Unburned sparse deciduous surrounding.  Site was on north facing slope. We called site medium severity. Patchy organic was present. Some mineral exposed. Deep burning in areas with live sphagnum hummocks in others. Permafrost present around 50 or 60. Seeing spruce and birch regen. Lots tussocks, RHOGRO and Spirea.","cbc67384-ee82-4490-bf08-00f79cf047f4","603e2eac-cbd5-438d-a5cb-9b670a7d4edc"
"Yukon Creek","YuCr2",NA,"8/1/2025",2025,64.65442,-145.93343,64.65484,-145.93286,363,6,130.5,40.5,0.575000464916229,3,3,"mesic-subxeric","Black spruce medium density and productivity.","Site on NW facing slope. No permafrost. Some mineral soil exposed. Patchy burning with mburned moss hummocks present. Organic layer was shallow with 15 cm being the max depth in a few spots. Spruce and birch regen. ","0067ee0d-5a1a-4b2a-a7a1-aea8ef11f58d","8cc84edd-3cdf-4035-a364-a8ea372feb07"
"Yukon Creek","YuCr3",NA,"8/1/2025",2025,64.65462,-145.93613,64.65485,-145.93581,340,4,284,26,0.46570760011673,2,2,"mesic","Black spruce low productivity medium density.","Moved site 20 m up from random point to avoid live trees. Site is at bottom of NE facing slope surrounded by live black trees. Creek near by about 20/30 meter away. Even with live trees near by, group agrees it’s a medium severity when looking at trees and soil. Patchy burning with shallow organic present. Permafrost present at about 50 cm. Spruce and birch regen. Even found an aspen. ","ba84f445-a04d-44f7-ba53-b6de33dfd89d","b234ba42-673a-4ddf-88ca-1989b198f9aa"
"Yukon Creek","YuCr4",NA,"8/4/2025",2025,64.65035,-145.92274,64.65025,-145.92223,493,10,188,98,0.691205620765686,3,3,"subxeric","Black spruce stand low density medium productivity but all hard to tell given that all trees have fallen","Site on south facing slope. High severity dry site. Permafrost was not present. Very shallow organic around 1 to 3 cm. Mineral exposed. Lots of birch regen with some aspen and spruce. 
*Note about tree inventory 
All trees fallen. Most roots not visible, either burnt or is just coarse woody. For inventory combustion, measured only trees with visible roots within 2m belt and skipped rest. AR length difficult to get for many fallen trees. Bark burnt away and little evidence of advantageous roots. Recorded any visible root.","38849645-5ae3-4125-aef3-3f345faaba37","3ed6d7c1-b95b-4ebb-9d39-a4e454416f88"
"Yukon Creek","YuCr5",NA,"8/4/2025",2025,64.65234,-145.92125,64.65257,-145.92107,502,4,90,0,0.501570582389832,3,3,"mesic-subxeric","Black spruce high density medium productivity ","Site is on W facing slope. High severity burn with thin to no organic and expose mineral. No permafrost was present. Lots of birch and spruce regen some aspen. All trees were downed.","01b91e22-e057-4665-8a95-571ca3235dbf","9d7cd851-7020-4ac1-89c0-f1c5fd4fc3e6"
